stop_id,stop_name,stop_lat,stop_lon
04040,Zaragoza-delicias,41.658649,-0.911605
06001,Librilla,37.886527,-1.346925
06002,Alhama De Murcia,37.849449,-1.414517
06003,Totana,37.763514,-1.495667
06004,La Hoya,37.703745,-1.595378
06005,Lorca San Diego,37.680710,-1.685667
06006,Lorca Sutullena,37.671671,-1.696293
06007,Puerto Lumbreras,37.580992,-1.731969
06008,Alcantarilla-los Romanos,37.964277,-1.216988
06100,Almendricos,37.475105,-1.778896
07001,Pulpí,37.399082,-1.74939
07003,Jaravia,37.392327,-1.693011
07004,Aguilas,37.409848,-1.572528
07007,Aguilas-el Labradorico,37.411896,-1.585915
10000,Príncipe Pío,40.421264,-3.720095
10001,Aravaca,40.448417,-3.785455
10002,Pozuelo,40.44726,-3.800102
10005,Las Rozas,40.494215,-3.868133
10007,Majadahonda,40.474271,-3.845378
10010,El Barrial-Centro Comercial,40.465029,-3.807933
10100,Pinar De Las Rozas,40.522196,-3.882311
10101,Las Matas,40.552414,-3.896711
10103,Torrelodones,40.574518,-3.956501
10104,Galapagar La Navata,40.600134,-3.982014
10200,Villalba De Guadarrama,40.626559,-4.008128
10201,San Yago,40.617837,-4.031173
10202,Las Zorreras - Navalquejigo,40.609501,-4.046214
10203,El Escorial,40.585278,-4.132534
10204,Zarzalejo,40.538710,-4.158180
10205,Robledo De Chavela,40.520802,-4.246774
10206,Santa Maria De La Alameda,40.568937,-4.269332
11305,Brinkola-oñati,43.018976,-2.334686
11306,Legazpì,43.051027,-2.330673
11400,Zumárraga,43.087327,-2.319864
11402,Ormaiztegi,43.040238,-2.256449
11404,Beasain,43.046232,-2.202303
11405,Ordizia,43.052769,-2.179204
11406,Itsasondo,43.068435,-2.162579
11407,Legorreta,43.085702,-2.140945
11408,Ikaztegieta,43.094007,-2.125533
11409,Alegia De Oria,43.101731,-2.097191
11500,Tolosa,43.135478,-2.079042
11501,Tolosa Centro,43.139368,-2.074105
11502,Anoeta,43.162618,-2.070429
11503,Billabona Zizurkil,43.189184,-2.055365
11504,Andoain-centro,43.215536,-2.020422
11505,Andoain,43.222253,-2.015272
11506,Urnieta,43.247508,-1.988442
11507,Hernani Centro,43.265645,-1.973391
11508,Hernani,43.272538,-1.963817
11509,Martutene,43.299080,-1.956148
11510,Loiola,43.304512,-1.963361
11511,San Sebastián-donostia,43.317669,-1.976704
11512,Gros,43.321831,-1.973848
11513,Ategorrieta,43.320299,-1.959869
11514,Herrera,43.319355,-1.937014
11515,Pasaia,43.31891,-1.917165
11516,Lezo-rentería,43.315905,-1.899412
11518,Ventas De Irun,43.330432,-1.816816
11522,Intxaurrondo,43.3199,-1.951259
11600,Irun,43.339582,-1.800192
12001,Los Negrales,40.638542,-4.021874
12002,Alpedrete,40.658099,-4.034981
12004,Collado-mediano,40.692752,-4.035787
12005,Los Molinos,40.706606,-4.067170
12006,Cercedilla,40.737541,-4.066387
12020,Puerto De Navacerrada,40.784522,-4.004699
12023,Cotos,40.822400,-3.964414
13100,Orduña,42.994670,-3.015828
13101,Amurrio,43.049010,-3.002119
13102,Salbio,43.074135,-2.999386
13103,Luiaondo,43.093554,-2.999662
13104,Santa Cruz Llodio,43.132815,-2.96986
13106,Llodio,43.142364,-2.960652
13107,Areta,43.145051,-2.943459
13108,Arbide,43.163096,-2.927991
13109,Arrankudiaga,43.169827,-2.918115
13110,Ugao-miraballes,43.179023,-2.902821
13111,Arrigorriaga,43.210009,-2.888589
13112,Basauri,43.223389,-2.882221
13113,Bidebieta - Basauri,43.236904,-2.889611
13114,Ollargan,43.242417,-2.916521
13115,Bakiola,43.176981,-2.909102
13116,Iñarratxu,43.035813,-3.003876
13117,Arakaldo,43.153364,-2.938328
13118,Abaroa - San Miguel,43.225602,-2.887083
13119,La Peña,43.24031,-2.924039
13120,Miribilla,43.249958,-2.930989
13121,Amurrio - Iparralde,43.057612,-2.996452
13200,Bilbao-Abando,43.260440,-2.928060
13205,Zabalburu,43.256006,-2.932786
13206,Ametzola,43.254660,-2.943883
13207,Autonomía,43.258083,-2.945959
13208,San Mamés,43.261491,-2.948815
13303,Olabeaga,43.264314,-2.954839
13304,Zorrotza,43.277971,-2.97251
13305,Lutxana,43.287808,-2.975374
13400,Desertu - Barakaldo,43.300454,-2.984372
13401,Sestao,43.308567,-2.994161
13402,La Iberia,43.312649,-3.004396
13403,Portugalete,43.318634,-3.015260
13404,Peñota,43.326309,-3.023523
13405,Santurtzi,43.329083,-3.03027
13501,Galindo,43.304061,-3.010104
13502,Trápaga,43.302777,-3.017378
13503,Valle De Trapaga-trapagaran,43.301448,-3.028745
13504,Ortuella,43.311514,-3.060371
13505,Putxeta,43.315698,-3.091194
13506,Muskiz,43.321402,-3.112331
13507,Urioste,43.307521,-3.041097
13508,Gallarta,43.319322,-3.067452
13509,Sagrada Familia,43.308513,-3.05342
14202,Reinosa,42.994447,-4.140944
14203,Lantueno-santiurde,43.058024,-4.084092
14204,Pesquera,43.082281,-4.073439
14206,Barcena,43.128567,-4.053912
14207,Molledo Portolin,43.145532,-4.039117
14208,Santa Cruz De Iguña,43.169356,-4.044975
14209,Las Fraguas,43.193092,-4.054148
14210,Los Corrales De Buelna,43.255076,-4.063922
14211,Las Caldas De Besaya,43.298573,-4.073192
14212,Vièrnoles,43.324464,-4.054036
14213,Torrelavega,43.327527,-4.042743
14214,Sierrapando,43.341691,-4.026538
14215,Zurita,43.347679,-3.990998
14216,Renedo,43.352980,-3.949472
14217,Parbayón,43.376764,-3.894066
14218,Guarnizo,43.39147,-3.859543
14219,Boo,43.410441,-3.841631
14220,Maliaño,43.417401,-3.842050
14223,Santander,43.459229,-3.811357
14230,Valdecilla,43.454033,-3.827958
14231,Nueva Montaña,43.444767,-3.847197
14232,Lombera,43.265812,-4.067589
14233,Rio Ebro,43.000802,-4.134593
14234,Pujayo,43.122553,-4.082773
14235,Arenas De Iguña,43.184933,-4.05005
14236,Vioño,43.360687,-3.964916
14237,Muriedas Bahia,43.421726,-3.844131
15118,Puente De Los Fierros,43.071417,-5.769544
15119,La Frecha,43.096134,-5.798603
15120,Campomanes,43.109979,-5.816386
15121,La Cobertoria,43.130089,-5.816005
15122,Pola De Lena,43.158653,-5.831018
15123,Villallana,43.184049,-5.814211
15200,Ujo,43.20605,-5.792684
15202,Santullano,43.220912,-5.785557
15203,Mieres Puente,43.250001,-5.782242
15205,Ablaña,43.26748,-5.80481
15206,La Pereda-riosa,43.277037,-5.812342
15207,Olloniego,43.296074,-5.818462
15208,Soto Del Rey,43.307653,-5.856858
15209,Las Segadas,43.313235,-5.869231
15210,El Caleyo,43.329072,-5.873190
15211,Oviedo,43.366323,-5.854871
15212,Lugones,43.404284,-5.811875
15217,La Corredoria,43.387858,-5.826927
15218,Llamaquique,43.358839,-5.857392
15300,Lugo De Llanera,43.442419,-5.816005
15301,Villabona De Asturias,43.461552,-5.826375
15302,Serín,43.50485,-5.781944
15303,Monteana,43.520913,-5.746247
15305,Villabona Tabladiello,43.474092,-5.80003
15400,Veriña,43.54158,-5.722807
15401,Calzada De Asturias,43.535384,-5.697594
15410,Gijón,43.539243,-5.675436
16001,Santa Eulalia De Manzaneda,43.31736,-5.812642
16002,Tudela Veguín,43.331008,-5.776845
16005,Peña Rubia,43.320994,-5.721141
16006,Barros,43.317841,-5.710955
16008,La Felguera,43.304714,-5.692796
16009,Sama,43.291773,-5.679492
16010,Ciaño,43.289385,-5.668691
16011,El Entrego,43.287140,-5.644827
16301,Ferroñes,43.476075,-5.861574
16302,Cancienes,43.507315,-5.869226
16400,Nubledo,43.523418,-5.870326
16401,Villalegre,43.540027,-5.902225
16402,La Rocica,43.547047,-5.904770
16403,Avilés,43.560961,-5.922559
16405,San Juan De Nieva,43.587883,-5.931287
16408,Los Campos,43.536675,-5.885115
17000,Chamartín,40.471184,-3.682807
17001,Fuencarral,40.501465,-3.682426
17003,El Goloso,40.558694,-3.713948
17004,Tres Cantos,40.598472,-3.715614
17005,Colmenar Viejo,40.645142,-3.775735
17009,Universidad Cantoblanco,40.543817,-3.700193
18000,Atocha Cercanias,40.406528,-3.689373
18001,Recoletos,40.423313,-3.69098
18002,Nuevos Ministerios,40.446616,-3.69219
18003,Méndez Alvaro,40.395600,-3.678226
18004,Delicias,40.4005,-3.693042
18005,Pirámides,40.402514,-3.711386
18101,Sol,40.416845,-3.702851
19001,Universidad Pontificia De Comillas,40.553983,-3.683735
19002,Valdelasfuentes,40.547388,-3.654178
19003,Alcobendas-San Sebastian De Los Reyes,40.546685,-3.635064
35001,Leganes,40.328667,-3.771143
35002,Fuenlabrada,40.282665,-3.798873
35009,Zarzaquemada,40.340894,-3.748212
35010,La Serna,40.296683,-3.79222
35011,Parque Polvoranca,40.31252,-3.783551
35012,Humanes,40.255539,-3.828336
35600,Aluche,40.3856,-3.760865
35601,Fanjul,40.38364,-3.768618
35602,Las Aguilas,40.380994,-3.780134
35603,Cuatro Vientos,40.377793,-3.791336
35604,San José De Valderas,40.356544,-3.815486
35605,Alcorcón,40.350193,-3.831602
35606,Móstoles,40.328458,-3.863621
35607,Móstoles - El Soto,40.331051,-3.882364
35608,Laguna,40.399009,-3.744219
35609,Embajadores,40.404530,-3.702484
35610,Las Retamas,40.34183,-3.842492
35702,Doce De Octubre,40.378907,-3.698614
35703,Orcasitas,40.366957,-3.704291
35704,Puente Alcocer,40.350368,-3.705094
37001,Villaverde Alto,40.34163,-3.712478
37002,Getafe-centro,40.309943,-3.73401
37010,Las Margaritas,40.322917,-3.727334
37011,Getafe Sector 3,40.288246,-3.737498
37012,Parla,40.240865,-3.769394
40113,Cazalla Constantina,37.932813,-5.704388
40115,Pedroso,37.837373,-5.762439
40118,Arenillas,37.700957,-5.750189
40119,Villanueva Del Río - Minas,37.661643,-5.712177
40121,Alcolea Del Río,37.635465,-5.730912
40122,Tocina,37.609098,-5.731838
43000,San Jerónimo,37.433069,-5.980639
43002,Camas,37.417788,-6.023362
43003,Villanueva Del Ariscal - Olivares,37.407105,-6.148172
43004,Sanlucar La Mayor,37.381468,-6.193978
43005,Benacazón,37.356795,-6.208295
43026,Valencina-Santiponce,37.42665,-6.055613
43027,Salteras,37.412831,-6.096900
50600,Lora Del Rio,37.661125,-5.53094
50602,Guadajoz,37.581402,-5.669954
50700,Los Rosales,37.589836,-5.726269
50701,Cantillana,37.574889,-5.803276
50702,Brenes,37.546245,-5.866849
50703,La Rinconada,37.480009,-5.940025
50704,El Cañamo,37.486243,-5.932998
51003,Sevilla-Santa Justa,37.391863,-5.975339
51009,Palacio Congresos,37.404528,-5.936437
51010,Padre Pio Palmete,37.371394,-5.939505
51050,Cartuja,37.408355,-6.009811
51051,Estadio Olímpico,37.416885,-6.007644
51100,San Bernardo,37.377923,-5.979519
51103,Dos Hermanas,37.287193,-5.923656
51110,Virgen Del Rocío,37.362896,-5.97594
51111,Bellavista,37.321476,-5.964332
51112,Cantaelgallo,37.278189,-5.910505
51113,Jardines de Hercules,37.329074,-5.963834
51200,Utrera,37.184031,-5.790825
51202,Las Cabezas De San Juan,37.01937,-5.946586
51203,Lebrija,36.911166,-6.094719
51205,Aeropuerto De Jerez,36.751606,-6.065881
51300,Jerez De La Frontera,36.679929,-6.126851
51400,Puerto Santa María,36.604073,-6.217843
51401,Puerto Real,36.532722,-6.189492
51402,San Fernando Centro,36.475812,-6.193913
51404,Segunda Aguada,36.513532,-6.277002
51405,Cádiz,36.52945,-6.289351
51406,San Fernando Bahía Sur,36.468230,-6.206616
51407,Cortadura,36.494363,-6.268392
51409,Estadio,36.502685,-6.272142
51414,San Severiano,36.521268,-6.28065
51415,Las Aletas,36.544105,-6.198456
51416,Cádiz Universidad,36.529215,-6.206146
51417,Valdelagrana,36.585219,-6.216341
54405,Alora,36.819826,-4.699673
54406,Pizarra,36.764157,-4.711826
54407,Aljaima,36.733074,-4.66464
54408,Cártama,36.733727,-4.608413
54410,Campanillas,36.705001,-4.545583
54412,Los Prados,36.698606,-4.477471
54501,Victoria Kent,36.701322,-4.453948
54503,Guadalhorce,36.692038,-4.48372
54505,Aeropuerto,36.675482,-4.486974
54508,La Colina,36.641939,-4.492571
54509,Torremolinos,36.622614,-4.499018
54510,El Pinillo,36.609829,-4.515405
54511,Benalmádena-arroyo De La Miel,36.599113,-4.536466
54512,Torremuelle,36.58222,-4.567137
54513,Carvajal,36.570289,-4.594021
54514,Torreblanca,36.564895,-4.606713
54515,Los Boliches,36.554914,-4.614356
54516,Fuengirola,36.541844,-4.623845
54517,Centro Alameda,36.715841,-4.426546
54518,Los Alamos,36.644629,-4.485716
54519,Montemar Alto,36.613531,-4.509601
54520,Plaza Mayor,36.656129,-4.48033
60100,Villaverde Bajo,40.352697,-3.684081
60101,San Cristobal Industrial,40.331873,-3.698848
60102,Getafe-industrial,40.305394,-3.707801
60103,Pinto,40.242802,-3.703665
60104,Valdemoro,40.196007,-3.66497
60105,Ciempozuelos,40.159031,-3.610173
60107,San Cristóbal De Los Angeles,40.342239,-3.683893
60109,El Casar,40.318573,-3.709871
60200,Aranjuez,40.034761,-3.618262
60911,Alicante-Terminal,38.344463,-0.494943
60913,Sant Vicent Center,38.394702,-0.528802
60914,Universidad De Alicante,38.38403,-0.528309
61200,Murcia Del Carmen,37.97479,-1.131522
62001,Beniel,38.044771,-0.999541
62002,Orihuela,38.07788,-0.944599
62003,Callosa De Segura,38.1213,-0.875457
62100,Albatera-catral,38.167016,-0.838096
62101,Crevillente,38.224498,-0.78158
62102,Elche-carrús/ Elx Carrus,38.269012,-0.706328
62103,Elche-parque/elx Parc,38.255703,-0.724101
62104,Torrellano,38.289558,-0.582554
62109,San Gabriel,38.328813,-0.508875
64003,Moixent,38.878464,-0.751866
64004,Vallada,38.908985,-0.689939
64005,Montesa,38.942788,-0.641468
64006,L' Alcúdia De Crespíns,38.969058,-0.586444
64007,L' Enova - Manuel,39.046198,-0.491531
64100,Xàtiva,38.992117,-0.524539
64102,La Pobla Llarga,39.083326,-0.46966
64103,Carcaixent,39.120482,-0.454431
64104,Alzira,39.153168,-0.450646
64105,Algemesí,39.193158,-0.440914
64107,Benifaio-almussafes,39.284236,-0.430006
64200,Silla,39.361743,-0.41497
64201,Catarroja,39.399985,-0.399204
64202,Massanassa,39.40916,-0.395315
64203,Alfafar-benetusser,39.422335,-0.3926
65000,Valencia-estacio Del Nord,39.466928,-0.377036
65001,Roca-Cúper,39.52619,-0.323843
65002,Fuente San Luis,39.44145,-0.369933
65003,Cabanyal,39.469877,-0.334687
65005,Albuixech,39.543626,-0.320513
65006,Massalfassar-albuixech,39.555644,-0.318346
65007,El Puig,39.588315,-0.311775
65008,Puzol  Puçol,39.617547,-0.30471
65200,Sagunt,39.675761,-0.271544
65201,Les Valls,39.719317,-0.239798
65202,Almenara,39.74879,-0.218412
65203,La Llosa,39.767845,-0.20299
65204,Chilches / Xilxes,39.782669,-0.19019
65205,Moncófar,39.820885,-0.162617
65206,Nules-villavieja,39.853383,-0.152454
65207,Burriana - Alquerias Del Niño Perdido,39.896461,-0.103922
65208,Vila-real,39.933049,-0.096779
65209,Almassora,39.954855,-0.076776
65300,Castellón De La Plana,39.987889,-0.052657
66200,Utiel,39.570573,-1.202359
66201,San Antonio De Requena,39.522267,-1.150444
66202,Requena,39.491126,-1.104662
66203,El Rebollar,39.477239,-1.011699
66204,Siete Aguas,39.456885,-0.903049
66205,Venta Mina-siete Aguas,39.454279,-0.870248
66206,Buñol,39.427152,-0.787314
66207,Chiva,39.471073,-0.72293
66208,Cheste,39.490836,-0.68627
66209,Loriguilla-reva,39.485702,-0.567405
66210,Circuit Ricardo Tormo,39.495476,-0.625977
66211,Aldaia,39.461018,-0.464199
66212,San Isidre,39.452626,-0.405917
66214,Xirivella-alquería,39.462567,-0.432195
67211,Caudiel,39.947286,-0.571853
67212,Jérica-viver,39.914925,-0.569407
67213,Navajas,39.874504,-0.505844
67214,Segorbe Arrabal,39.854526,-0.493887
67215,Segorbe Ciudad,39.847105,-0.482445
67216,Algimia-ciudad,39.753034,-0.365693
67217,Soneja,39.812628,-0.431756
67221,Estivella-albalat Dels Tarongers,39.706328,-0.348142
67223,Gilet,39.679394,-0.320723
69101,El Romani,39.302977,-0.394189
69102,Sollana,39.279245,-0.379394
69103,Sueca,39.205858,-0.307725
69104,Cullera,39.177928,-0.263126
69105,Tavernes De Valldigna,39.079699,-0.226799
69107,Xeraco,39.026248,-0.214786
69110,Gandía,38.970087,-0.179859
69111,Platja I Grau De Gandía,38.990111,-0.162704
69200,Xirivella - L'alter,39.463681,-0.420987
70001,Vallecas,40.382264,-3.624931
70002,Asamblea De Madrid-entrevias,40.381687,-3.668576
70003,El Pozo,40.376122,-3.656216
70100,Vicálvaro,40.401279,-3.595966
70101,San Fernando De Henares,40.442554,-3.533973
70102,Torrejon De Ardoz,40.454736,-3.479794
70103,Alcalá De Henares,40.489027,-3.365765
70104,Meco,40.534567,-3.298737
70105,Azuqueca,40.561091,-3.265547
70107,Alcala Henares Universidad,40.505356,-3.335266
70108,Coslada,40.423784,-3.561379
70109,Santa Eugenia,40.386852,-3.608859
70111,La Garena,40.48059,-3.393097
70112,Soto del Henares,40.468059,-3.447097
70200,Guadalajara,40.644226,-3.182269
70800,Casetas,41.722971,-1.021214
70801,Utebo-pueblo,41.710657,-0.997989
70806,Zaragoza-El Portillo,41.652673,-0.896046
70807,Zargoza-Goya,41.643967,-0.89114
71100,Miraflores,41.632324,-0.866514
71600,Sant Vicenç De Calders,41.186167,1.524797
71601,Calafell,41.189651,1.574993
71602,Segur De Calafell,41.192562,1.606431
71603,Cunit,41.195036,1.631876
71604,Cubelles,41.20434,1.675957
71700,Vilanova I La Geltrú,41.220389,1.730722
71701,Sitges,41.23879,1.809633
71703,Garraf,41.253964,1.902357
71704,Platja Castelldefels,41.266842,1.957181
71705,Castelldefels,41.278755,1.979093
71706,Gavá,41.303417,2.010444
71707,El Prat De Llobregat,41.330626,2.089908
71708,Bellvitge,41.353714,2.115315
71709,Viladecans,41.309407,2.027700
71801,Sants,41.379520,2.140624
71802,Passeig De Gracia,41.392281,2.164896
72201,El Vendrell,41.221184,1.537743
72202,L' Arboç,41.273025,1.60012
72203,Els Monjos,41.314752,1.659853
72204,Vilafranca Del Penedès,41.344811,1.703112
72205,La Granada,41.371016,1.725036
72206,Lavern-subirats,41.395657,1.768182
72207,Sant Sadurní D'anoia,41.420588,1.794639
72208,Gelida,41.448531,1.865498
72209,Martorell,41.478787,1.926459
72210,Castellbisbal,41.47274,1.968605
72211,El Papiol,41.435393,2.002647
72300,Molins De Rei,41.409844,2.02057
72301,Sant Feliu De Llobregat,41.382935,2.047834
72302,Sant Joan D'espi,41.36854,2.060147
72303,Cornellà,41.357469,2.070566
72305,L' Hospitalet De Llobregat,41.364075,2.100711
72400,Aeroport,41.303844,2.072180
72501,Rubí,41.475178,2.0371
72502,Sant Cugat Del Valles,41.480973,2.079731
72503,Cerdanyola Universitat,41.497107,2.115482
77002,Montcada-ripollet,41.496841,2.181941
77003,Santa Perpétua De Mogoda,41.521686,2.194315
77004,Mollet-santa Rosa,41.536597,2.206189
77005,Parets Del Valles,41.556292,2.225992
77006,Granollers-canovelles,41.611416,2.277008
77100,Les Franqueses De Vallés,41.629722,2.295206
77102,La Garriga,41.684469,2.288748
77103,Figaro,41.720987,2.271625
77104,Sant Martí De Centelles,41.760583,2.24893
77105,Centelles,41.799375,2.222478
77106,Balenyá Els-hostalets,41.814938,2.233315
77107,Balenya-tona-seva,41.841868,2.247519
77109,Vic,41.931034,2.248904
78600,Manresa,41.720393,1.827185
78604,Sant Vicent De Castellet,41.668851,1.862649
78605,Castellbell I El Vilar Monistrol,41.628400,1.868550
78606,Vacarisses,41.601891,1.894388
78607,Vacarisses Torreblanca,41.586759,1.916921
78609,Viladecavalls,41.563853,1.957144
78610,Sant Miquel De Gonteres Viladecavalls,41.568855,1.974213
78700,Terrasa,41.569576,2.014348
78703,Sabadell Sud,41.528716,2.105395
78704,Sabadell Centro,41.547892,2.115053
78705,Barberá Del Vallés,41.513615,2.118535
78706,Cerdanyola Del Vallès,41.492627,2.14743
78707,Montcada I Reixac-santa Maria,41.481154,2.167067
78708,Montcada I Reixac-manresa,41.483951,2.185351
78709,Sabadell Nord,41.562401,2.09591
78710,Terrasa Est.,41.567515,2.039406
78800,Montcada Bifurcación,41.469591,2.179853
78801,Torre Del Barò,41.461354,2.180421
78802,Sant Andreu Arenal,41.430851,2.183104
78804,Arc De Triomf,41.391646,2.180271
78805,Plaça Catalunya,41.38737,2.168856
78806,La Sagrera Meridiana,41.421958,2.187115
79004,Sant Adreu Comtal,41.436083,2.193097
79005,Montcada I Reix,41.483833,2.188193
79006,Mollet-Sant Fost,41.533579,2.21757
79007,Montmeló,41.550409,2.247082
79009,El Clot Aragó,41.409188,2.187148
79011,La Llagosta,41.510473,2.199768
79100,Granollers-Centre,41.599705,2.291087
79101,Cardedeu,41.636719,2.356203
79102,Llinars Del Vallès,41.638096,2.404551
79103,Palautordera,41.671557,2.453814
79104,Sant Celóni,41.685877,2.490554
79105,Gualba,41.718171,2.538617
79106,Riells I Viabrea-breda,41.726687,2.56843
79107,Hostalric,41.747722,2.631483
79109,Les Franqueses Granollers Nord,41.617129,2.294434
79200,Macanet-Massanes,41.773056,2.673572
79400,Estació De França,41.384535,2.18519
79403,Sant Adriá De Besos,41.424665,2.230761
79404,Badalona,41.445921,2.248893
79405,Montgat,41.463019,2.272098
79406,Montgat Nord,41.468822,2.286755
79407,El Masnou,41.477136,2.310702
79408,Ocata,41.479051,2.319648
79409,Premiá De Mar,41.48764,2.354698
79410,Vilassar De Mar,41.500454,2.389473
79412,Cabrera-vilasar De Mar,41.506858,2.401591
79500,Mataró,41.530395,2.441068
79501,Sant Andreu De Llavaneres,41.555722,2.498462
79502,Caldes D`estrac,41.56864,2.525984
79600,Arenys De Mar,41.5777,2.549343
79601,Canet De Mar,41.586716,2.58121
79602,Sant Pol De Mar,41.601811,2.624584
79603,Calella,41.614589,2.665716
79604,Pineda De Mar,41.622396,2.693517
79605,Malgrat De Mar,41.641776,2.741529
79606,Blanes,41.673451,2.769265
79607,Tordera,41.707242,2.719304
79608,Santa Susanna,41.630216,2.71627
97100,Pitis,40.495365,-3.72573
97201,Ramón y Cajal,40.488011,-3.695002
98003,Fuente De La Mora,40.484749,-3.662825
98304,Valdebebas,40.490149,-3.596825
98305,Aeropuerto T4,40.491675,-3.593516